{"meta": {"code": 200, "requestId": "5ce9976d4c1f6753b7c19ae5"}, "response": {"suggestedFilters": {"header": "Tap to show:", "filters": [{"name": "$-$$$$", "key": "price"}, {"name": "Open now", "key": "openNow"}]}, "headerLocation": "Hell's Kitchen", "headerFullLocation": "Hell's Kitchen, New York", "headerLocationGranularity": "neighborhood", "totalResults": 76, "suggestedBounds": {"ne": {"lat": 40.76115808677519, "lng": -73.99418176867869}, "sw": {"lat": 40.752158077775185, "lng": -74.00604095537406}}, "groups": [{"type": "Recommended Places", "name": "recommended", "items": [{"reasons": {"count": 0, "items": [{"summary": "This spot is popular", "type": "general", "reasonName": "globalInteractionReason"}]}, "venue": {"id": "55d12634498ee6d387a520a5", "name": "Bella Abzug Park", "location": {"address": "Hudson Blvd", "crossStreet": "at 11th Ave", "lat": 40.75557964275589, "lng": -74.00034427642822, "labeledLatLngs": [{"label": "display", "lat": 40.75557964275589, "lng": -74.00034427642822}], "distance": 121, "postalCode": "10001", "cc": "US", "neighborhood": "Hudson Yards", "city": "New York", "state": "NY", "country": "United States", "formattedAddress": ["Hudson Blvd (at 11th Ave)", "New York, NY 10001", "United States"]}, "categories": [{"id": "4bf58dd8d48988d163941735", "name": "Park", "pluralName": "Parks", "shortName": "Park", "icon": {"prefix": "https://ss3.4sqi.net/img/categories_v2/parks_outdoors/park_", "suffix": ".png"}, "primary": true}], "photos": {"count": 0, "groups": []}}, "referralId": "e-0-55d12634498ee6d387a520a5-0"}, {"reasons": {"count": 0, "items": [{"summary": "This spot is popular", "type": "general", "reasonName": "globalInteractionReason"}]}, "venue": {"id": "54ddf9a1498e766ab85781f4", "name": "Friedman's", "location": {"address": "450 10th Ave", "crossStreet": "35th St", "lat": 40.75527060199177, "lng": -73.99850924419557, "labeledLatLngs": [{"label": "display", "lat": 40.75527060199177, "lng": -73.99850924419557}], "distance": 205, "postalCode": "10018", "cc": "US", "city": "New York", "state": "NY", "country": "United States", "formattedAddress": ["450 10th Ave (35th St)", "New York, NY 10018", "United States"]}, "categories": [{"id": "4bf58dd8d48988d14e941735", "name": "American Restaurant", "pluralName": "American Restaurants", "shortName": "American", "icon": {"prefix": "https://ss3.4sqi.net/img/categories_v2/food/default_", "suffix": ".png"}, "primary": true}], "delivery": {"id": "303107", "url": "https://www.seamless.com/menu/friedmans-450-10th-ave-new-york/303107?affiliate=1131&utm_source=foursquare-affiliate-network&utm_medium=affiliate&utm_campaign=1131&utm_content=303107", "provider": {"name": "seamless", "icon": {"prefix": "https://fastly.4sqi.net/img/general/cap/", "sizes": [40, 50], "name": "/delivery_provider_seamless_20180129.png"}}}, "photos": {"count": 0, "groups": []}}, "referralId": "e-0-54ddf9a1498e766ab85781f4-1"}, {"reasons": {"count": 0, "items": [{"summary": "This spot is popular", "type": "general", "reasonName": "globalInteractionReason"}]}, "venue": {"id": "533629bf498ed70d66886dd6", "name": "TITLE Boxing Club NYC - Midtown West", "location": {"address": "455 W 37th St", "lat": 40.75636043759353, "lng": -73.99731271933179, "labeledLatLngs": [{"label": "display", "lat": 40.75636043759353, "lng": -73.99731271933179}], "distance": 238, "postalCode": "10018", "cc": "US", "city": "New York", "state": "NY", "country": "United States", "formattedAddress": ["455 W 37th St", "New York, NY 10018", "United States"]}, "categories": [{"id": "4bf58dd8d48988d175941735", "name": "Gym / Fitness Center", "pluralName": "Gyms or Fitness Centers", "shortName": "Gym / Fitness", "icon": {"prefix": "https://ss3.4sqi.net/img/categories_v2/building/gym_", "suffix": ".png"}, "primary": true}], "photos": {"count": 0, "groups": []}, "venuePage": {"id": "82513285"}}, "referralId": "e-0-533629bf498ed70d66886dd6-2"}, {"reasons": {"count": 0, "items": [{"summary": "This spot is popular", "type": "general", "reasonName": "globalInteractionReason"}]}, "venue": {"id": "4a0b4df9f964a520e8741fe3", "name": "Baryshnikov Arts Center", "location": {"address": "450 W 37th St", "crossStreet": "Near 10th Ave.", "lat": 40.7562834864242, "lng": -73.99718114055341, "labeledLatLngs": [{"label": "display", "lat": 40.7562834864242, "lng": -73.99718114055341}], "distance": 250, "postalCode": "10018", "cc": "US", "city": "New York", "state": "NY", "country": "United States", "formattedAddress": ["450 W 37th St (Near 10th Ave.)", "New York, NY 10018", "United States"]}, "categories": [{"id": "4bf58dd8d48988d137941735", "name": "Theater", "pluralName": "Theaters", "shortName": "Theater", "icon": {"prefix": "https://ss3.4sqi.net/img/categories_v2/arts_entertainment/performingarts_theater_", "suffix": ".png"}, "primary": true}], "photos": {"count": 0, "groups": []}, "venuePage": {"id": "49992729"}}, "referralId": "e-0-4a0b4df9f964a520e8741fe3-3"}, {"reasons": {"count": 0, "items": [{"summary": "This spot is popular", "type": "general", "reasonName": "globalInteractionReason"}]}, "venue": {"id": "4daf05e343a1f97d91988078", "name": "DiMenna Center for Classical Music", "location": {"address": "450 W 37th St", "crossStreet": "btwn 9th Ave. & 10th Ave.", "lat": 40.75632282156117, "lng": -73.99719159820236, "labeledLatLngs": [{"label": "display", "lat": 40.75632282156117, "lng": -73.99719159820236}], "distance": 249, "postalCode": "10018", "cc": "US", "city": "New York", "state": "NY", "country": "United States", "formattedAddress": ["450 W 37th St (btwn 9th Ave. & 10th Ave.)", "New York, NY 10018", "United States"]}, "categories": [{"id": "4f04b10d2fb6e1c99f3db0be", "name": "Music School", "pluralName": "Music Schools", "shortName": "Music School", "icon": {"prefix": "https://ss3.4sqi.net/img/categories_v2/building/school_music_", "suffix": ".png"}, "primary": true}], "photos": {"count": 0, "groups": []}, "venuePage": {"id": "36193116"}}, "referralId": "e-0-4daf05e343a1f97d91988078-4"}, {"reasons": {"count": 0, "items": [{"summary": "This spot is popular", "type": "general", "reasonName": "globalInteractionReason"}]}, "venue": {"id": "4b6c43bdf964a5208f2c2ce3", "name": "505W37", "location": {"address": "505 W 37th St", "crossStreet": "btwn 10th Ave & 11th Ave", "lat": 40.75690858825211, "lng": -73.99800734510892, "labeledLatLngs": [{"label": "display", "lat": 40.75690858825211, "lng": -73.99800734510892}], "distance": 179, "postalCode": "10018", "cc": "US", "city": "New York", "state": "NY", "country": "United States", "formattedAddress": ["505 W 37th St (btwn 10th Ave & 11th Ave)", "New York, NY 10018", "United States"]}, "categories": [{"id": "4d954b06a243a5684965b473", "name": "Residential Building (Apartment / Condo)", "pluralName": "Residential Buildings (Apartments / Condos)", "shortName": "Residential", "icon": {"prefix": "https://ss3.4sqi.net/img/categories_v2/building/apartment_", "suffix": ".png"}, "primary": true}], "photos": {"count": 0, "groups": []}}, "referralId": "e-0-4b6c43bdf964a5208f2c2ce3-5"}, {"reasons": {"count": 0, "items": [{"summary": "This spot is popular", "type": "general", "reasonName": "globalInteractionReason"}]}, "venue": {"id": "5b592caba42362002cf7b54f", "name": "Ada\u2019s Place", "location": {"address": "517 W 38th St", "lat": 40.75727008003709, "lng": -73.99836463884138, "labeledLatLngs": [{"label": "display", "lat": 40.75727008003709, "lng": -73.99836463884138}], "distance": 162, "postalCode": "10018", "cc": "US", "city": "New York", "state": "NY", "country": "United States", "formattedAddress": ["517 W 38th St", "New York, NY 10018", "United States"]}, "categories": [{"id": "4bf58dd8d48988d11e941735", "name": "Cocktail Bar", "pluralName": "Cocktail Bars", "shortName": "Cocktail", "icon": {"prefix": "https://ss3.4sqi.net/img/categories_v2/nightlife/cocktails_", "suffix": ".png"}, "primary": true}], "photos": {"count": 0, "groups": []}}, "referralId": "e-0-5b592caba42362002cf7b54f-6"}, {"reasons": {"count": 0, "items": [{"summary": "This spot is popular", "type": "general", "reasonName": "globalInteractionReason"}]}, "venue": {"id": "514ca6f57043482a0c84e7ab", "name": "Brooklyn Fare", "location": {"address": "431 W 37th St", "lat": 40.756010383085886, "lng": -73.99638575725729, "labeledLatLngs": [{"label": "display", "lat": 40.756010383085886, "lng": -73.99638575725729}], "distance": 322, "postalCode": "10018", "cc": "US", "city": "New York", "state": "NY", "country": "United States", "formattedAddress": ["431 W 37th St", "New York, NY 10018", "United States"]}, "categories": [{"id": "52f2ab2ebcbc57f1066b8b46", "name": "Supermarket", "pluralName": "Supermarkets", "shortName": "Supermarket", "icon": {"prefix": "https://ss3.4sqi.net/img/categories_v2/shops/food_grocery_", "suffix": ".png"}, "primary": true}], "photos": {"count": 0, "groups": []}, "venuePage": {"id": "51345309"}}, "referralId": "e-0-514ca6f57043482a0c84e7ab-7"}, {"reasons": {"count": 0, "items": [{"summary": "This spot is popular", "type": "general", "reasonName": "globalInteractionReason"}]}, "venue": {"id": "5c8d178e81104500399e7349", "name": "Muji", "location": {"address": "20 Hudson Yards", "crossStreet": "10th Avenue", "lat": 40.7538399579729, "lng": -73.99995618289434, "labeledLatLngs": [{"label": "display", "lat": 40.7538399579729, "lng": -73.99995618289434}], "distance": 313, "postalCode": "10001", "cc": "US", "city": "New York", "state": "NY", "country": "United States", "formattedAddress": ["20 Hudson Yards (10th Avenue)", "New York, NY 10001", "United States"]}, "categories": [{"id": "4bf58dd8d48988d1f8941735", "name": "Furniture / Home Store", "pluralName": "Furniture / Home Stores", "shortName": "Furniture / Home", "icon": {"prefix": "https://ss3.4sqi.net/img/categories_v2/shops/furniture_", "suffix": ".png"}, "primary": true}], "photos": {"count": 0, "groups": []}}, "referralId": "e-0-5c8d178e81104500399e7349-8"}, {"reasons": {"count": 0, "items": [{"summary": "This spot is popular", "type": "general", "reasonName": "globalInteractionReason"}]}, "venue": {"id": "598f46f28134882ad180cb3c", "name": "Vessel", "location": {"address": "Hudson Yards", "crossStreet": "34th St & 11th Ave", "lat": 40.75399636158353, "lng": -74.00225400924683, "labeledLatLngs": [{"label": "display", "lat": 40.75399636158353, "lng": -74.00225400924683}], "distance": 347, "postalCode": "10001", "cc": "US", "neighborhood": "Hudson Yards", "city": "New York", "state": "NY", "country": "United States", "formattedAddress": ["Hudson Yards (34th St & 11th Ave)", "New York, NY 10001", "United States"]}, "categories": [{"id": "507c8c4091d498d9fc8c67a9", "name": "Public Art", "pluralName": "Public Art", "shortName": "Public Art", "icon": {"prefix": "https://ss3.4sqi.net/img/categories_v2/arts_entertainment/default_", "suffix": ".png"}, "primary": true}], "photos": {"count": 0, "groups": []}}, "referralId": "e-0-598f46f28134882ad180cb3c-9"}, {"reasons": {"count": 0, "items": [{"summary": "This spot is popular", "type": "general", "reasonName": "globalInteractionReason"}]}, "venue": {"id": "59fde002ee712077f2c481f8", "name": "Margay\u2019s", "location": {"address": "477 10th Ave", "lat": 40.75624125926553, "lng": -73.99784930772095, "labeledLatLngs": [{"label": "display", "lat": 40.75624125926553, "lng": -73.99784930772095}], "distance": 196, "postalCode": "10018", "cc": "US", "city": "New York", "state": "NY", "country": "United States", "formattedAddress": ["477 10th Ave", "New York, NY 10018", "United States"]}, "categories": [{"id": "4bf58dd8d48988d1e0931735", "name": "Coffee Shop", "pluralName": "Coffee Shops", "shortName": "Coffee Shop", "icon": {"prefix": "https://ss3.4sqi.net/img/categories_v2/food/coffeeshop_", "suffix": ".png"}, "primary": true}], "photos": {"count": 0, "groups": []}}, "referralId": "e-0-59fde002ee712077f2c481f8-10"}, {"reasons": {"count": 0, "items": [{"summary": "This spot is popular", "type": "general", "reasonName": "globalInteractionReason"}]}, "venue": {"id": "59f3554f002f4c0655d65bab", "name": "Legacy Records", "location": {"address": "517 W 38th St", "crossStreet": "10th Ave", "lat": 40.757592, "lng": -73.998352, "labeledLatLngs": [{"label": "display", "lat": 40.757592, "lng": -73.998352}], "distance": 181, "postalCode": "10018", "cc": "US", "city": "New York", "state": "NY", "country": "United States", "formattedAddress": ["517 W 38th St (10th Ave)", "New York, NY 10018", "United States"]}, "categories": [{"id": "4bf58dd8d48988d14e941735", "name": "American Restaurant", "pluralName": "American Restaurants", "shortName": "American", "icon": {"prefix": "https://ss3.4sqi.net/img/categories_v2/food/default_", "suffix": ".png"}, "primary": true}], "photos": {"count": 0, "groups": []}}, "referralId": "e-0-59f3554f002f4c0655d65bab-11"}, {"reasons": {"count": 0, "items": [{"summary": "This spot is popular", "type": "general", "reasonName": "globalInteractionReason"}]}, "venue": {"id": "5c8bea5bf193c0002c295f52", "name": "Van Leeuwen Ice Cream", "location": {"address": "20 Hudson Yards", "lat": 40.753923988951406, "lng": -74.00197843729909, "labeledLatLngs": [{"label": "display", "lat": 40.753923988951406, "lng": -74.00197843729909}], "distance": 342, "postalCode": "10001", "cc": "US", "city": "New York", "state": "NY", "country": "United States", "formattedAddress": ["20 Hudson Yards", "New York, NY 10001", "United States"]}, "categories": [{"id": "4bf58dd8d48988d1c9941735", "name": "Ice Cream Shop", "pluralName": "Ice Cream Shops", "shortName": "Ice Cream", "icon": {"prefix": "https://ss3.4sqi.net/img/categories_v2/food/icecream_", "suffix": ".png"}, "primary": true}], "photos": {"count": 0, "groups": []}}, "referralId": "e-0-5c8bea5bf193c0002c295f52-12"}, {"reasons": {"count": 0, "items": [{"summary": "This spot is popular", "type": "general", "reasonName": "globalInteractionReason"}]}, "venue": {"id": "508b0be8e4b0ad933b580b6f", "name": "Sean Kelly Gallery", "location": {"address": "475 10th Ave", "crossStreet": "36th", "lat": 40.75602161305348, "lng": -73.99830619607941, "labeledLatLngs": [{"label": "display", "lat": 40.75602161305348, "lng": -73.99830619607941}], "distance": 167, "postalCode": "10018", "cc": "US", "city": "New York", "state": "NY", "country": "United States", "formattedAddress": ["475 10th Ave (36th)", "New York, NY 10018", "United States"]}, "categories": [{"id": "4bf58dd8d48988d1e2931735", "name": "Art Gallery", "pluralName": "Art Galleries", "shortName": "Art Gallery", "icon": {"prefix": "https://ss3.4sqi.net/img/categories_v2/arts_entertainment/artgallery_", "suffix": ".png"}, "primary": true}], "photos": {"count": 0, "groups": []}}, "referralId": "e-0-508b0be8e4b0ad933b580b6f-13"}, {"reasons": {"count": 0, "items": [{"summary": "This spot is popular", "type": "general", "reasonName": "globalInteractionReason"}]}, "venue": {"id": "5c8736c0178a2a002cf4adce", "name": "Kawi", "location": {"address": "20 Hudson Yards", "lat": 40.75391341242933, "lng": -74.00132164772553, "labeledLatLngs": [{"label": "display", "lat": 40.75391341242933, "lng": -74.00132164772553}], "distance": 322, "postalCode": "10001", "cc": "US", "city": "New York", "state": "NY", "country": "United States", "formattedAddress": ["20 Hudson Yards", "New York, NY 10001", "United States"]}, "categories": [{"id": "4bf58dd8d48988d142941735", "name": "Asian Restaurant", "pluralName": "Asian Restaurants", "shortName": "Asian", "icon": {"prefix": "https://ss3.4sqi.net/img/categories_v2/food/asian_", "suffix": ".png"}, "primary": true}], "photos": {"count": 0, "groups": []}}, "referralId": "e-0-5c8736c0178a2a002cf4adce-14"}, {"reasons": {"count": 0, "items": [{"summary": "This spot is popular", "type": "general", "reasonName": "globalInteractionReason"}]}, "venue": {"id": "5854cfc203cf255eb3b9c8cb", "name": "Chef's Table At Brooklyn Fare", "location": {"address": "431 W 37th St", "lat": 40.75602376620261, "lng": -73.99636631297123, "labeledLatLngs": [{"label": "display", "lat": 40.75602376620261, "lng": -73.99636631297123}], "distance": 323, "postalCode": "10018", "cc": "US", "city": "New York", "state": "NY", "country": "United States", "formattedAddress": ["431 W 37th St", "New York, NY 10018", "United States"]}, "categories": [{"id": "4bf58dd8d48988d14e941735", "name": "American Restaurant", "pluralName": "American Restaurants", "shortName": "American", "icon": {"prefix": "https://ss3.4sqi.net/img/categories_v2/food/default_", "suffix": ".png"}, "primary": true}], "photos": {"count": 0, "groups": []}, "venuePage": {"id": "463205230"}}, "referralId": "e-0-5854cfc203cf255eb3b9c8cb-15"}, {"reasons": {"count": 0, "items": [{"summary": "This spot is popular", "type": "general", "reasonName": "globalInteractionReason"}]}, "venue": {"id": "58a5edb926a95370d3716208", "name": "Four Points by Sheraton Manhattan Midtown West", "location": {"address": "444 10th Avenue, Entrance On Corner Of 35th St 10th Ave", "lat": 40.754998, "lng": -73.998427, "labeledLatLngs": [{"label": "display", "lat": 40.754998, "lng": -73.998427}], "distance": 233, "postalCode": "10001", "cc": "US", "city": "New York", "state": "NY", "country": "United States", "formattedAddress": ["444 10th Avenue, Entrance On Corner Of 35th St 10th Ave", "New York, NY 10001", "United States"]}, "categories": [{"id": "4bf58dd8d48988d1fa931735", "name": "Hotel", "pluralName": "Hotels", "shortName": "Hotel", "icon": {"prefix": "https://ss3.4sqi.net/img/categories_v2/travel/hotel_", "suffix": ".png"}, "primary": true}], "photos": {"count": 0, "groups": []}}, "referralId": "e-0-58a5edb926a95370d3716208-16"}, {"reasons": {"count": 0, "items": [{"summary": "This spot is popular", "type": "general", "reasonName": "globalInteractionReason"}]}, "venue": {"id": "5c886442b04056002c8ced53", "name": "Hudson Yards Grill", "location": {"address": "20 Hudson Yards", "lat": 40.754127, "lng": -74.000753, "labeledLatLngs": [{"label": "display", "lat": 40.754127, "lng": -74.000753}], "distance": 286, "postalCode": "10001", "cc": "US", "city": "New York", "state": "NY", "country": "United States", "formattedAddress": ["20 Hudson Yards", "New York, NY 10001", "United States"]}, "categories": [{"id": "4bf58dd8d48988d14e941735", "name": "American Restaurant", "pluralName": "American Restaurants", "shortName": "American", "icon": {"prefix": "https://ss3.4sqi.net/img/categories_v2/food/default_", "suffix": ".png"}, "primary": true}], "photos": {"count": 0, "groups": []}}, "referralId": "e-0-5c886442b04056002c8ced53-17"}, {"reasons": {"count": 0, "items": [{"summary": "This spot is popular", "type": "general", "reasonName": "globalInteractionReason"}]}, "venue": {"id": "5758771d498ecbe6c8cc39c5", "name": "Old Country Coffee", "location": {"address": "455 W 34th St", "lat": 40.75437106839111, "lng": -73.99872690610927, "labeledLatLngs": [{"label": "display", "lat": 40.75437106839111, "lng": -73.99872690610927}], "distance": 280, "postalCode": "10001", "cc": "US", "city": "New York", "state": "NY", "country": "United States", "formattedAddress": ["455 W 34th St", "New York, NY 10001", "United States"]}, "categories": [{"id": "4bf58dd8d48988d16d941735", "name": "Caf\u00e9", "pluralName": "Caf\u00e9s", "shortName": "Caf\u00e9", "icon": {"prefix": "https://ss3.4sqi.net/img/categories_v2/food/cafe_", "suffix": ".png"}, "primary": true}], "photos": {"count": 0, "groups": []}, "venuePage": {"id": "459062906"}}, "referralId": "e-0-5758771d498ecbe6c8cc39c5-18"}, {"reasons": {"count": 0, "items": [{"summary": "This spot is popular", "type": "general", "reasonName": "globalInteractionReason"}]}, "venue": {"id": "5c8be99aefa82a002cd3cc9e", "name": "Peach Mart", "location": {"address": "20 Hudson Yards", "lat": 40.753894032574536, "lng": -74.00174565988958, "labeledLatLngs": [{"label": "display", "lat": 40.753894032574536, "lng": -74.00174565988958}], "distance": 337, "postalCode": "10001", "cc": "US", "city": "New York", "state": "NY", "country": "United States", "formattedAddress": ["20 Hudson Yards", "New York, NY 10001", "United States"]}, "categories": [{"id": "4bf58dd8d48988d146941735", "name": "Deli / Bodega", "pluralName": "Delis / Bodegas", "shortName": "Deli / Bodega", "icon": {"prefix": "https://ss3.4sqi.net/img/categories_v2/food/deli_", "suffix": ".png"}, "primary": true}], "photos": {"count": 0, "groups": []}}, "referralId": "e-0-5c8be99aefa82a002cd3cc9e-19"}, {"reasons": {"count": 0, "items": [{"summary": "This spot is popular", "type": "general", "reasonName": "globalInteractionReason"}]}, "venue": {"id": "4c07e4a3009a0f47f237e5bf", "name": "Rooftop 505 W.37th St.", "location": {"address": "505 W 37th St", "crossStreet": "10th avenue.", "lat": 40.75717476752408, "lng": -73.99852906897736, "labeledLatLngs": [{"label": "display", "lat": 40.75717476752408, "lng": -73.99852906897736}], "distance": 145, "postalCode": "10018", "cc": "US", "city": "New York", "state": "NY", "country": "United States", "formattedAddress": ["505 W 37th St (10th avenue.)", "New York, NY 10018", "United States"]}, "categories": [{"id": "4bf58dd8d48988d165941735", "name": "Scenic Lookout", "pluralName": "Scenic Lookouts", "shortName": "Scenic Lookout", "icon": {"prefix": "https://ss3.4sqi.net/img/categories_v2/parks_outdoors/sceniclookout_", "suffix": ".png"}, "primary": true}], "photos": {"count": 0, "groups": []}}, "referralId": "e-0-4c07e4a3009a0f47f237e5bf-20"}, {"reasons": {"count": 0, "items": [{"summary": "This spot is popular", "type": "general", "reasonName": "globalInteractionReason"}]}, "venue": {"id": "4adee193f964a520d77621e3", "name": "The Victory", "location": {"address": "561 10th Ave", "crossStreet": "btwn 41st & 42nd", "lat": 40.75927433585485, "lng": -73.99646791200374, "labeledLatLngs": [{"label": "display", "lat": 40.75927433585485, "lng": -73.99646791200374}], "distance": 423, "postalCode": "10036", "cc": "US", "city": "New York", "state": "NY", "country": "United States", "formattedAddress": ["561 10th Ave (btwn 41st & 42nd)", "New York, NY 10036", "United States"]}, "categories": [{"id": "4bf58dd8d48988d130941735", "name": "Building", "pluralName": "Buildings", "shortName": "Building", "icon": {"prefix": "https://ss3.4sqi.net/img/categories_v2/building/default_", "suffix": ".png"}, "primary": true}], "photos": {"count": 0, "groups": []}, "venuePage": {"id": "37763094"}}, "referralId": "e-0-4adee193f964a520d77621e3-21"}, {"reasons": {"count": 0, "items": [{"summary": "This spot is popular", "type": "general", "reasonName": "globalInteractionReason"}]}, "venue": {"id": "4eb5c125f9f40c39c596bb4a", "name": "Mark Fisher Fitness - Ninja Clubhouse", "location": {"address": "411 W 39th St", "crossStreet": "btwn 9th & 10th Ave", "lat": 40.75683627951094, "lng": -73.99471875886772, "labeledLatLngs": [{"label": "display", "lat": 40.75683627951094, "lng": -73.99471875886772}], "distance": 455, "postalCode": "10018", "cc": "US", "city": "New York", "state": "NY", "country": "United States", "formattedAddress": ["411 W 39th St (btwn 9th & 10th Ave)", "New York, NY 10018", "United States"]}, "categories": [{"id": "4bf58dd8d48988d175941735", "name": "Gym / Fitness Center", "pluralName": "Gyms or Fitness Centers", "shortName": "Gym / Fitness", "icon": {"prefix": "https://ss3.4sqi.net/img/categories_v2/building/gym_", "suffix": ".png"}, "primary": true}], "photos": {"count": 0, "groups": []}, "venuePage": {"id": "54564162"}}, "referralId": "e-0-4eb5c125f9f40c39c596bb4a-22"}, {"reasons": {"count": 0, "items": [{"summary": "This spot is popular", "type": "general", "reasonName": "globalInteractionReason"}]}, "venue": {"id": "5ca4fab1e97dfb002c057da3", "name": "Bluestone Lane", "location": {"address": "20 Hudson Yards", "lat": 40.753223, "lng": -74.000714, "labeledLatLngs": [{"label": "display", "lat": 40.753223, "lng": -74.000714}], "distance": 385, "postalCode": "10001", "cc": "US", "city": "New York", "state": "NY", "country": "United States", "formattedAddress": ["20 Hudson Yards", "New York, NY 10001", "United States"]}, "categories": [{"id": "4bf58dd8d48988d16d941735", "name": "Caf\u00e9", "pluralName": "Caf\u00e9s", "shortName": "Caf\u00e9", "icon": {"prefix": "https://ss3.4sqi.net/img/categories_v2/food/cafe_", "suffix": ".png"}, "primary": true}], "photos": {"count": 0, "groups": []}}, "referralId": "e-0-5ca4fab1e97dfb002c057da3-23"}, {"reasons": {"count": 0, "items": [{"summary": "This spot is popular", "type": "general", "reasonName": "globalInteractionReason"}]}, "venue": {"id": "5c8c4634178a2a002c14a4aa", "name": "Fuku", "location": {"address": "20 Hudson Yards", "lat": 40.753859360987576, "lng": -74.00093077907114, "labeledLatLngs": [{"label": "display", "lat": 40.753859360987576, "lng": -74.00093077907114}], "distance": 319, "postalCode": "10001", "cc": "US", "city": "New York", "state": "NY", "country": "United States", "formattedAddress": ["20 Hudson Yards", "New York, NY 10001", "United States"]}, "categories": [{"id": "4d4ae6fc7a7b7dea34424761", "name": "Fried Chicken Joint", "pluralName": "Fried Chicken Joints", "shortName": "Fried Chicken", "icon": {"prefix": "https://ss3.4sqi.net/img/categories_v2/food/friedchicken_", "suffix": ".png"}, "primary": true}], "delivery": {"id": "1155444", "url": "https://www.seamless.com/menu/fuku-20-hudson-yards--ru203a-new-york/1155444?affiliate=1131&utm_source=foursquare-affiliate-network&utm_medium=affiliate&utm_campaign=1131&utm_content=1155444", "provider": {"name": "seamless", "icon": {"prefix": "https://fastly.4sqi.net/img/general/cap/", "sizes": [40, 50], "name": "/delivery_provider_seamless_20180129.png"}}}, "photos": {"count": 0, "groups": []}}, "referralId": "e-0-5c8c4634178a2a002c14a4aa-24"}, {"reasons": {"count": 0, "items": [{"summary": "This spot is popular", "type": "general", "reasonName": "globalInteractionReason"}]}, "venue": {"id": "5c7c7625911fc4002cdabc2e", "name": "Neiman Marcus", "location": {"address": "20 Hudson Yards", "lat": 40.7535073141172, "lng": -74.0015452927872, "labeledLatLngs": [{"label": "display", "lat": 40.7535073141172, "lng": -74.0015452927872}], "distance": 370, "postalCode": "10001", "cc": "US", "city": "New York", "state": "NY", "country": "United States", "formattedAddress": ["20 Hudson Yards", "New York, NY 10001", "United States"]}, "categories": [{"id": "4bf58dd8d48988d1f6941735", "name": "Department Store", "pluralName": "Department Stores", "shortName": "Department Store", "icon": {"prefix": "https://ss3.4sqi.net/img/categories_v2/shops/departmentstore_", "suffix": ".png"}, "primary": true}], "photos": {"count": 0, "groups": []}}, "referralId": "e-0-5c7c7625911fc4002cdabc2e-25"}, {"reasons": {"count": 0, "items": [{"summary": "This spot is popular", "type": "general", "reasonName": "globalInteractionReason"}]}, "venue": {"id": "5a235575e179100e0425abc7", "name": "UCB Theatre Hell\u2019s Kitchen", "location": {"address": "555 W 42nd St", "crossStreet": "11th Ave.", "lat": 40.760499950120476, "lng": -73.997863306895, "labeledLatLngs": [{"label": "display", "lat": 40.760499950120476, "lng": -73.997863306895}], "distance": 467, "postalCode": "10036", "cc": "US", "city": "New York", "state": "NY", "country": "United States", "formattedAddress": ["555 W 42nd St (11th Ave.)", "New York, NY 10036", "United States"]}, "categories": [{"id": "4bf58dd8d48988d18e941735", "name": "Comedy Club", "pluralName": "Comedy Clubs", "shortName": "Comedy Club", "icon": {"prefix": "https://ss3.4sqi.net/img/categories_v2/arts_entertainment/comedyclub_", "suffix": ".png"}, "primary": true}], "photos": {"count": 0, "groups": []}}, "referralId": "e-0-5a235575e179100e0425abc7-26"}, {"reasons": {"count": 0, "items": [{"summary": "This spot is popular", "type": "general", "reasonName": "globalInteractionReason"}]}, "venue": {"id": "4dcae1b18877502200c95822", "name": "Sergimmo Salumeria", "location": {"address": "456 9th Ave", "crossStreet": "btwn 35th St & 36th St", "lat": 40.754388185280874, "lng": -73.99564194904139, "labeledLatLngs": [{"label": "display", "lat": 40.754388185280874, "lng": -73.99564194904139}], "distance": 453, "postalCode": "10018", "cc": "US", "city": "New York", "state": "NY", "country": "United States", "formattedAddress": ["456 9th Ave (btwn 35th St & 36th St)", "New York, NY 10018", "United States"]}, "categories": [{"id": "4bf58dd8d48988d110941735", "name": "Italian Restaurant", "pluralName": "Italian Restaurants", "shortName": "Italian", "icon": {"prefix": "https://ss3.4sqi.net/img/categories_v2/food/italian_", "suffix": ".png"}, "primary": true}], "delivery": {"id": "258057", "url": "https://www.seamless.com/menu/sergimmo-salumeria-456-9th-ave-new-york/258057?affiliate=1131&utm_source=foursquare-affiliate-network&utm_medium=affiliate&utm_campaign=1131&utm_content=258057", "provider": {"name": "seamless", "icon": {"prefix": "https://fastly.4sqi.net/img/general/cap/", "sizes": [40, 50], "name": "/delivery_provider_seamless_20180129.png"}}}, "photos": {"count": 0, "groups": []}, "venuePage": {"id": "83938023"}}, "referralId": "e-0-4dcae1b18877502200c95822-27"}, {"reasons": {"count": 0, "items": [{"summary": "This spot is popular", "type": "general", "reasonName": "globalInteractionReason"}]}, "venue": {"id": "4bd7334ef645c9b60f6ca5e0", "name": "Manhattan Aquariums", "location": {"address": "522 W 37th St", "crossStreet": "9th ave.", "lat": 40.757028811341804, "lng": -73.99908532443791, "labeledLatLngs": [{"label": "display", "lat": 40.757028811341804, "lng": -73.99908532443791}], "distance": 95, "postalCode": "10018", "cc": "US", "city": "New York", "state": "NY", "country": "United States", "formattedAddress": ["522 W 37th St (9th ave.)", "New York, NY 10018", "United States"]}, "categories": [{"id": "4bf58dd8d48988d100951735", "name": "Pet Store", "pluralName": "Pet Stores", "shortName": "Pet Store", "icon": {"prefix": "https://ss3.4sqi.net/img/categories_v2/shops/pet_store_", "suffix": ".png"}, "primary": true}], "photos": {"count": 0, "groups": []}}, "referralId": "e-0-4bd7334ef645c9b60f6ca5e0-28"}, {"reasons": {"count": 0, "items": [{"summary": "This spot is popular", "type": "general", "reasonName": "globalInteractionReason"}]}, "venue": {"id": "59f360b7a2a6ce437c57cbcd", "name": "Fresh & Co.", "location": {"address": "444 10th Ave", "lat": 40.75520913086476, "lng": -73.9985395397202, "labeledLatLngs": [{"label": "display", "lat": 40.75520913086476, "lng": -73.9985395397202}], "distance": 208, "postalCode": "10001", "cc": "US", "city": "New York", "state": "NY", "country": "United States", "formattedAddress": ["444 10th Ave", "New York, NY 10001", "United States"]}, "categories": [{"id": "4bf58dd8d48988d1bd941735", "name": "Salad Place", "pluralName": "Salad Places", "shortName": "Salad", "icon": {"prefix": "https://ss3.4sqi.net/img/categories_v2/food/salad_", "suffix": ".png"}, "primary": true}], "delivery": {"id": "565426", "url": "https://www.seamless.com/menu/fresh--co-444-10th-ave-new-york/565426?affiliate=1131&utm_source=foursquare-affiliate-network&utm_medium=affiliate&utm_campaign=1131&utm_content=565426", "provider": {"name": "seamless", "icon": {"prefix": "https://fastly.4sqi.net/img/general/cap/", "sizes": [40, 50], "name": "/delivery_provider_seamless_20180129.png"}}}, "photos": {"count": 0, "groups": []}}, "referralId": "e-0-59f360b7a2a6ce437c57cbcd-29"}, {"reasons": {"count": 0, "items": [{"summary": "This spot is popular", "type": "general", "reasonName": "globalInteractionReason"}]}, "venue": {"id": "4ca268611ee76dcb3c55f0dd", "name": "Astro Dog Run", "location": {"lat": 40.75808111019388, "lng": -73.9970210180508, "labeledLatLngs": [{"label": "display", "lat": 40.75808111019388, "lng": -73.9970210180508}], "distance": 304, "postalCode": "10018", "cc": "US", "city": "New York", "state": "NY", "country": "United States", "formattedAddress": ["New York, NY 10018", "United States"]}, "categories": [{"id": "4bf58dd8d48988d1e5941735", "name": "Dog Run", "pluralName": "Dog Runs", "shortName": "Dog Run", "icon": {"prefix": "https://ss3.4sqi.net/img/categories_v2/parks_outdoors/dogrun_", "suffix": ".png"}, "primary": true}], "photos": {"count": 0, "groups": []}}, "referralId": "e-0-4ca268611ee76dcb3c55f0dd-30"}, {"reasons": {"count": 0, "items": [{"summary": "This spot is popular", "type": "general", "reasonName": "globalInteractionReason"}]}, "venue": {"id": "5c884ff986bc4900394d0685", "name": "TAK Room", "location": {"address": "20 Hudson Yards Lvl 5", "lat": 40.753583, "lng": -74.002379, "labeledLatLngs": [{"label": "display", "lat": 40.753583, "lng": -74.002379}], "distance": 392, "postalCode": "10001", "cc": "US", "city": "New York", "state": "NY", "country": "United States", "formattedAddress": ["20 Hudson Yards Lvl 5", "New York, NY 10001", "United States"]}, "categories": [{"id": "4bf58dd8d48988d14e941735", "name": "American Restaurant", "pluralName": "American Restaurants", "shortName": "American", "icon": {"prefix": "https://ss3.4sqi.net/img/categories_v2/food/default_", "suffix": ".png"}, "primary": true}], "photos": {"count": 0, "groups": []}}, "referralId": "e-0-5c884ff986bc4900394d0685-31"}, {"reasons": {"count": 0, "items": [{"summary": "This spot is popular", "type": "general", "reasonName": "globalInteractionReason"}]}, "venue": {"id": "5b647af84aa3f8002cbffffc", "name": "sweetgreen", "location": {"address": "10 Hudson Yards", "lat": 40.7525552, "lng": -74.0012429, "labeledLatLngs": [{"label": "display", "lat": 40.7525552, "lng": -74.0012429}], "distance": 466, "postalCode": "10001", "cc": "US", "city": "New York", "state": "NY", "country": "United States", "formattedAddress": ["10 Hudson Yards", "New York, NY 10001", "United States"]}, "categories": [{"id": "4bf58dd8d48988d1bd941735", "name": "Salad Place", "pluralName": "Salad Places", "shortName": "Salad", "icon": {"prefix": "https://ss3.4sqi.net/img/categories_v2/food/salad_", "suffix": ".png"}, "primary": true}], "photos": {"count": 0, "groups": []}}, "referralId": "e-0-5b647af84aa3f8002cbffffc-32"}, {"reasons": {"count": 0, "items": [{"summary": "This spot is popular", "type": "general", "reasonName": "globalInteractionReason"}]}, "venue": {"id": "4adb6119f964a520a72621e3", "name": "B&H Photo Video", "location": {"address": "420 9th Ave", "crossStreet": "at W 34th St", "lat": 40.75327707821823, "lng": -73.9964696920619, "labeledLatLngs": [{"label": "display", "lat": 40.75327707821823, "lng": -73.9964696920619}], "distance": 485, "postalCode": "10001", "cc": "US", "city": "New York", "state": "NY", "country": "United States", "formattedAddress": ["420 9th Ave (at W 34th St)", "New York, NY 10001", "United States"]}, "categories": [{"id": "4eb1bdf03b7b55596b4a7491", "name": "Camera Store", "pluralName": "Camera Stores", "shortName": "Camera Store", "icon": {"prefix": "https://ss3.4sqi.net/img/categories_v2/shops/camerastore_", "suffix": ".png"}, "primary": true}], "photos": {"count": 0, "groups": []}, "venuePage": {"id": "33882813"}}, "referralId": "e-0-4adb6119f964a520a72621e3-33"}, {"reasons": {"count": 0, "items": [{"summary": "This spot is popular", "type": "general", "reasonName": "globalInteractionReason"}]}, "venue": {"id": "4c0870ae340720a1703f8393", "name": "505W37 Gym", "location": {"address": "505 W 37th St", "crossStreet": "btwn 10th Ave & 11th Ave", "lat": 40.75727530635666, "lng": -73.99779701418834, "labeledLatLngs": [{"label": "display", "lat": 40.75727530635666, "lng": -73.99779701418834}], "distance": 206, "postalCode": "10018", "cc": "US", "city": "New York", "state": "NY", "country": "United States", "formattedAddress": ["505 W 37th St (btwn 10th Ave & 11th Ave)", "New York, NY 10018", "United States"]}, "categories": [{"id": "4bf58dd8d48988d176941735", "name": "Gym", "pluralName": "Gyms", "shortName": "Gym", "icon": {"prefix": "https://ss3.4sqi.net/img/categories_v2/building/gym_", "suffix": ".png"}, "primary": true}], "photos": {"count": 0, "groups": []}}, "referralId": "e-0-4c0870ae340720a1703f8393-34"}, {"reasons": {"count": 0, "items": [{"summary": "This spot is popular", "type": "general", "reasonName": "globalInteractionReason"}]}, "venue": {"id": "59efcc4a396de07d5e7c911e", "name": "Rosewood Theatre", "location": {"address": "552 W 38th St", "lat": 40.757999478420324, "lng": -73.99958217331516, "labeledLatLngs": [{"label": "display", "lat": 40.757999478420324, "lng": -73.99958217331516}], "distance": 155, "postalCode": "10018", "cc": "US", "city": "New York", "state": "NY", "country": "United States", "formattedAddress": ["552 W 38th St", "New York, NY 10018", "United States"]}, "categories": [{"id": "4bf58dd8d48988d11f941735", "name": "Nightclub", "pluralName": "Nightclubs", "shortName": "Nightclub", "icon": {"prefix": "https://ss3.4sqi.net/img/categories_v2/nightlife/nightclub_", "suffix": ".png"}, "primary": true}], "photos": {"count": 0, "groups": []}}, "referralId": "e-0-59efcc4a396de07d5e7c911e-35"}, {"reasons": {"count": 0, "items": [{"summary": "This spot is popular", "type": "general", "reasonName": "globalInteractionReason"}]}, "venue": {"id": "5c8d194a968f31002caecf6c", "name": "Kith Treats", "location": {"address": "20 Hudson Yards", "lat": 40.75407, "lng": -74.00217, "labeledLatLngs": [{"label": "display", "lat": 40.75407, "lng": -74.00217}], "distance": 336, "postalCode": "10001", "cc": "US", "city": "New York", "state": "NY", "country": "United States", "formattedAddress": ["20 Hudson Yards", "New York, NY 10001", "United States"]}, "categories": [{"id": "4bf58dd8d48988d1c9941735", "name": "Ice Cream Shop", "pluralName": "Ice Cream Shops", "shortName": "Ice Cream", "icon": {"prefix": "https://ss3.4sqi.net/img/categories_v2/food/icecream_", "suffix": ".png"}, "primary": true}], "photos": {"count": 0, "groups": []}}, "referralId": "e-0-5c8d194a968f31002caecf6c-36"}, {"reasons": {"count": 0, "items": [{"summary": "This spot is popular", "type": "general", "reasonName": "globalInteractionReason"}]}, "venue": {"id": "5c8c33972f97ec002ca5b3ab", "name": "Bar Celona", "location": {"address": "10 Hudson Yards Fl 1", "lat": 40.752838, "lng": -74.001838, "labeledLatLngs": [{"label": "display", "lat": 40.752838, "lng": -74.001838}], "distance": 449, "postalCode": "10001", "cc": "US", "city": "New York", "state": "NY", "country": "United States", "formattedAddress": ["10 Hudson Yards Fl 1", "New York, NY 10001", "United States"]}, "categories": [{"id": "4bf58dd8d48988d116941735", "name": "Bar", "pluralName": "Bars", "shortName": "Bar", "icon": {"prefix": "https://ss3.4sqi.net/img/categories_v2/nightlife/pub_", "suffix": ".png"}, "primary": true}], "photos": {"count": 0, "groups": []}}, "referralId": "e-0-5c8c33972f97ec002ca5b3ab-37"}, {"reasons": {"count": 0, "items": [{"summary": "This spot is popular", "type": "general", "reasonName": "globalInteractionReason"}]}, "venue": {"id": "554e13cf498e01d1a22b363e", "name": "Rustic Table", "location": {"address": "504 W 42nd St", "crossStreet": "10th Ave", "lat": 40.759754, "lng": -73.996013, "labeledLatLngs": [{"label": "display", "lat": 40.759754, "lng": -73.996013}], "distance": 488, "postalCode": "10036", "cc": "US", "city": "New York", "state": "NY", "country": "United States", "formattedAddress": ["504 W 42nd St (10th Ave)", "New York, NY 10036", "United States"]}, "categories": [{"id": "4bf58dd8d48988d16d941735", "name": "Caf\u00e9", "pluralName": "Caf\u00e9s", "shortName": "Caf\u00e9", "icon": {"prefix": "https://ss3.4sqi.net/img/categories_v2/food/cafe_", "suffix": ".png"}, "primary": true}], "delivery": {"id": "309439", "url": "https://www.seamless.com/menu/rustic-table-504-w-42nd-st-new-york/309439?affiliate=1131&utm_source=foursquare-affiliate-network&utm_medium=affiliate&utm_campaign=1131&utm_content=309439", "provider": {"name": "seamless", "icon": {"prefix": "https://fastly.4sqi.net/img/general/cap/", "sizes": [40, 50], "name": "/delivery_provider_seamless_20180129.png"}}}, "photos": {"count": 0, "groups": []}}, "referralId": "e-0-554e13cf498e01d1a22b363e-38"}, {"reasons": {"count": 0, "items": [{"summary": "This spot is popular", "type": "general", "reasonName": "globalInteractionReason"}]}, "venue": {"id": "505b7061e4b0571999fb3da8", "name": "Tavola", "location": {"address": "488 9th Ave", "crossStreet": "at W 38th St", "lat": 40.75553079277017, "lng": -73.99476881950281, "labeledLatLngs": [{"label": "display", "lat": 40.75553079277017, "lng": -73.99476881950281}], "distance": 467, "postalCode": "10018", "cc": "US", "city": "New York", "state": "NY", "country": "United States", "formattedAddress": ["488 9th Ave (at W 38th St)", "New York, NY 10018", "United States"]}, "categories": [{"id": "4bf58dd8d48988d110941735", "name": "Italian Restaurant", "pluralName": "Italian Restaurants", "shortName": "Italian", "icon": {"prefix": "https://ss3.4sqi.net/img/categories_v2/food/italian_", "suffix": ".png"}, "primary": true}], "photos": {"count": 0, "groups": []}, "venuePage": {"id": "48183201"}}, "referralId": "e-0-505b7061e4b0571999fb3da8-39"}, {"reasons": {"count": 0, "items": [{"summary": "This spot is popular", "type": "general", "reasonName": "globalInteractionReason"}]}, "venue": {"id": "51c4b169498ee2e8364a2bb9", "name": "Sunac Natural Food", "location": {"address": "600 W 42nd St", "crossStreet": "42nd Street and 11th Ave", "lat": 40.76072453468411, "lng": -73.99842514475792, "labeledLatLngs": [{"label": "display", "lat": 40.76072453468411, "lng": -73.99842514475792}], "distance": 474, "postalCode": "10036", "cc": "US", "city": "New York", "state": "NY", "country": "United States", "formattedAddress": ["600 W 42nd St (42nd Street and 11th Ave)", "New York, NY 10036", "United States"]}, "categories": [{"id": "50aa9e744b90af0d42d5de0e", "name": "Health Food Store", "pluralName": "Health Food Stores", "shortName": "Health Food Store", "icon": {"prefix": "https://ss3.4sqi.net/img/categories_v2/shops/food_grocery_", "suffix": ".png"}, "primary": true}], "photos": {"count": 0, "groups": []}}, "referralId": "e-0-51c4b169498ee2e8364a2bb9-40"}, {"reasons": {"count": 0, "items": [{"summary": "This spot is popular", "type": "general", "reasonName": "globalInteractionReason"}]}, "venue": {"id": "5b29281678782c0034879d48", "name": "Mercado Little Spain", "location": {"address": "10 Hudson Yards", "lat": 40.75274001731029, "lng": -74.00183575101391, "labeledLatLngs": [{"label": "display", "lat": 40.75274001731029, "lng": -74.00183575101391}], "distance": 459, "postalCode": "10001", "cc": "US", "city": "New York", "state": "NY", "country": "United States", "formattedAddress": ["10 Hudson Yards", "New York, NY 10001", "United States"]}, "categories": [{"id": "4bf58dd8d48988d120951735", "name": "Food Court", "pluralName": "Food Courts", "shortName": "Food Court", "icon": {"prefix": "https://ss3.4sqi.net/img/categories_v2/shops/food_foodcourt_", "suffix": ".png"}, "primary": true}], "photos": {"count": 0, "groups": []}, "venuePage": {"id": "535697980"}}, "referralId": "e-0-5b29281678782c0034879d48-41"}, {"reasons": {"count": 0, "items": [{"summary": "This spot is popular", "type": "general", "reasonName": "globalInteractionReason"}]}, "venue": {"id": "5c8c7ac938f2160025f3dcd3", "name": "Estiatorio Milos", "location": {"address": "20 Hudson Yards", "lat": 40.753199, "lng": -74.001024, "labeledLatLngs": [{"label": "display", "lat": 40.753199, "lng": -74.001024}], "distance": 392, "postalCode": "10001", "cc": "US", "city": "New York", "state": "NY", "country": "United States", "formattedAddress": ["20 Hudson Yards", "New York, NY 10001", "United States"]}, "categories": [{"id": "4bf58dd8d48988d10e941735", "name": "Greek Restaurant", "pluralName": "Greek Restaurants", "shortName": "Greek", "icon": {"prefix": "https://ss3.4sqi.net/img/categories_v2/food/greek_", "suffix": ".png"}, "primary": true}], "photos": {"count": 0, "groups": []}}, "referralId": "e-0-5c8c7ac938f2160025f3dcd3-42"}, {"reasons": {"count": 0, "items": [{"summary": "This spot is popular", "type": "general", "reasonName": "globalInteractionReason"}]}, "venue": {"id": "5c8d246c492822003a5a5a6e", "name": "Blue Bottle Coffee", "location": {"address": "20 Hudson Yards", "lat": 40.753846295435544, "lng": -74.00225041674165, "labeledLatLngs": [{"label": "display", "lat": 40.753846295435544, "lng": -74.00225041674165}], "distance": 361, "postalCode": "10001", "cc": "US", "city": "New York", "state": "NY", "country": "United States", "formattedAddress": ["20 Hudson Yards", "New York, NY 10001", "United States"]}, "categories": [{"id": "4bf58dd8d48988d1e0931735", "name": "Coffee Shop", "pluralName": "Coffee Shops", "shortName": "Coffee Shop", "icon": {"prefix": "https://ss3.4sqi.net/img/categories_v2/food/coffeeshop_", "suffix": ".png"}, "primary": true}], "photos": {"count": 0, "groups": []}}, "referralId": "e-0-5c8d246c492822003a5a5a6e-43"}, {"reasons": {"count": 0, "items": [{"summary": "This spot is popular", "type": "general", "reasonName": "globalInteractionReason"}]}, "venue": {"id": "57e55e46498e04b0dc14dbb0", "name": "Via Trenta", "location": {"address": "536 W 30th St", "lat": 40.753004473560765, "lng": -74.00289810123499, "labeledLatLngs": [{"label": "display", "lat": 40.753004473560765, "lng": -74.00289810123499}], "distance": 469, "postalCode": "10001", "cc": "US", "city": "New York", "state": "NY", "country": "United States", "formattedAddress": ["536 W 30th St", "New York, NY 10001", "United States"]}, "categories": [{"id": "4bf58dd8d48988d110941735", "name": "Italian Restaurant", "pluralName": "Italian Restaurants", "shortName": "Italian", "icon": {"prefix": "https://ss3.4sqi.net/img/categories_v2/food/italian_", "suffix": ".png"}, "primary": true}], "delivery": {"id": "342519", "url": "https://www.seamless.com/menu/via-trenta-pizzoteca-536-w-30th-st-new-york/342519?affiliate=1131&utm_source=foursquare-affiliate-network&utm_medium=affiliate&utm_campaign=1131&utm_content=342519", "provider": {"name": "seamless", "icon": {"prefix": "https://fastly.4sqi.net/img/general/cap/", "sizes": [40, 50], "name": "/delivery_provider_seamless_20180129.png"}}}, "photos": {"count": 0, "groups": []}}, "referralId": "e-0-57e55e46498e04b0dc14dbb0-44"}, {"reasons": {"count": 0, "items": [{"summary": "This spot is popular", "type": "general", "reasonName": "globalInteractionReason"}]}, "venue": {"id": "4d8dfba8d00a6ea8e7d9ad4f", "name": "Club 7 By Iowa Sports", "location": {"address": "620 W 42nd St", "crossStreet": "11th At Silver Towers", "lat": 40.76082717166776, "lng": -73.99912031260314, "labeledLatLngs": [{"label": "display", "lat": 40.76082717166776, "lng": -73.99912031260314}], "distance": 471, "postalCode": "10036", "cc": "US", "city": "New York", "state": "NY", "country": "United States", "formattedAddress": ["620 W 42nd St (11th At Silver Towers)", "New York, NY 10036", "United States"]}, "categories": [{"id": "4bf58dd8d48988d176941735", "name": "Gym", "pluralName": "Gyms", "shortName": "Gym", "icon": {"prefix": "https://ss3.4sqi.net/img/categories_v2/building/gym_", "suffix": ".png"}, "primary": true}], "photos": {"count": 0, "groups": []}}, "referralId": "e-0-4d8dfba8d00a6ea8e7d9ad4f-45"}, {"reasons": {"count": 0, "items": [{"summary": "This spot is popular", "type": "general", "reasonName": "globalInteractionReason"}]}, "venue": {"id": "4c3478bded37a593b7e16e03", "name": "Silver Towers 7th Floor Gym/Pool/Lounge/Roof", "location": {"address": "610-620 W 42nd St", "lat": 40.76063181255091, "lng": -73.99924872560831, "labeledLatLngs": [{"label": "display", "lat": 40.76063181255091, "lng": -73.99924872560831}], "distance": 448, "postalCode": "10036", "cc": "US", "city": "New York", "state": "NY", "country": "United States", "formattedAddress": ["610-620 W 42nd St", "New York, NY 10036", "United States"]}, "categories": [{"id": "4bf58dd8d48988d175941735", "name": "Gym / Fitness Center", "pluralName": "Gyms or Fitness Centers", "shortName": "Gym / Fitness", "icon": {"prefix": "https://ss3.4sqi.net/img/categories_v2/building/gym_", "suffix": ".png"}, "primary": true}], "photos": {"count": 0, "groups": []}}, "referralId": "e-0-4c3478bded37a593b7e16e03-46"}, {"reasons": {"count": 0, "items": [{"summary": "This spot is popular", "type": "general", "reasonName": "globalInteractionReason"}]}, "venue": {"id": "5c8bd0606a5950002c45768d", "name": "Shake Shack", "location": {"address": "20 Hudson Yards", "lat": 40.75403677919727, "lng": -74.00215884509286, "labeledLatLngs": [{"label": "display", "lat": 40.75403677919727, "lng": -74.00215884509286}], "distance": 339, "postalCode": "10001", "cc": "US", "city": "New York", "state": "NY", "country": "United States", "formattedAddress": ["20 Hudson Yards", "New York, NY 10001", "United States"]}, "categories": [{"id": "4bf58dd8d48988d16c941735", "name": "Burger Joint", "pluralName": "Burger Joints", "shortName": "Burgers", "icon": {"prefix": "https://ss3.4sqi.net/img/categories_v2/food/burger_", "suffix": ".png"}, "primary": true}], "photos": {"count": 0, "groups": []}}, "referralId": "e-0-5c8bd0606a5950002c45768d-47"}, {"reasons": {"count": 0, "items": [{"summary": "This spot is popular", "type": "general", "reasonName": "globalInteractionReason"}]}, "venue": {"id": "49bc064ff964a5200a541fe3", "name": "Thai Select", "location": {"address": "472 9th Ave", "crossStreet": "36th St", "lat": 40.754867, "lng": -73.995007, "labeledLatLngs": [{"label": "display", "lat": 40.754867, "lng": -73.995007}], "distance": 474, "postalCode": "10018", "cc": "US", "city": "New York", "state": "NY", "country": "United States", "formattedAddress": ["472 9th Ave (36th St)", "New York, NY 10018", "United States"]}, "categories": [{"id": "4bf58dd8d48988d149941735", "name": "Thai Restaurant", "pluralName": "Thai Restaurants", "shortName": "Thai", "icon": {"prefix": "https://ss3.4sqi.net/img/categories_v2/food/thai_", "suffix": ".png"}, "primary": true}], "delivery": {"id": "752873", "url": "https://www.seamless.com/menu/thai-select-472-9th-ave-new-york/752873?affiliate=1131&utm_source=foursquare-affiliate-network&utm_medium=affiliate&utm_campaign=1131&utm_content=752873", "provider": {"name": "seamless", "icon": {"prefix": "https://fastly.4sqi.net/img/general/cap/", "sizes": [40, 50], "name": "/delivery_provider_seamless_20180129.png"}}}, "photos": {"count": 0, "groups": []}}, "referralId": "e-0-49bc064ff964a5200a541fe3-48"}, {"reasons": {"count": 0, "items": [{"summary": "This spot is popular", "type": "general", "reasonName": "globalInteractionReason"}]}, "venue": {"id": "5c8c478b1822230031071fa4", "name": "Milos Wine Bar", "location": {"address": "20 Hudson Yards", "lat": 40.754019, "lng": -74.002229, "labeledLatLngs": [{"label": "display", "lat": 40.754019, "lng": -74.002229}], "distance": 343, "postalCode": "10001", "cc": "US", "city": "New York", "state": "NY", "country": "United States", "formattedAddress": ["20 Hudson Yards", "New York, NY 10001", "United States"]}, "categories": [{"id": "4bf58dd8d48988d123941735", "name": "Wine Bar", "pluralName": "Wine Bars", "shortName": "Wine Bar", "icon": {"prefix": "https://ss3.4sqi.net/img/categories_v2/food/winery_", "suffix": ".png"}, "primary": true}], "photos": {"count": 0, "groups": []}}, "referralId": "e-0-5c8c478b1822230031071fa4-49"}, {"reasons": {"count": 0, "items": [{"summary": "This spot is popular", "type": "general", "reasonName": "globalInteractionReason"}]}, "venue": {"id": "5b2d2f56911fc4002cd86b15", "name": "Farida", "location": {"address": "498 9th Ave", "crossStreet": "38th St", "lat": 40.755721641233336, "lng": -73.99462746829839, "labeledLatLngs": [{"label": "display", "lat": 40.755721641233336, "lng": -73.99462746829839}], "distance": 474, "postalCode": "10018", "cc": "US", "city": "New York", "state": "NY", "country": "United States", "formattedAddress": ["498 9th Ave (38th St)", "New York, NY 10018", "United States"]}, "categories": [{"id": "5293a7d53cf9994f4e043a45", "name": "Caucasian Restaurant", "pluralName": "Caucasian Restaurants", "shortName": "Caucasian", "icon": {"prefix": "https://ss3.4sqi.net/img/categories_v2/food/caucasian_", "suffix": ".png"}, "primary": true}], "delivery": {"id": "800957", "url": "https://www.seamless.com/menu/farida-central-asian-cuisine-498-9th-ave-new-york/800957?affiliate=1131&utm_source=foursquare-affiliate-network&utm_medium=affiliate&utm_campaign=1131&utm_content=800957", "provider": {"name": "seamless", "icon": {"prefix": "https://fastly.4sqi.net/img/general/cap/", "sizes": [40, 50], "name": "/delivery_provider_seamless_20180129.png"}}}, "photos": {"count": 0, "groups": []}}, "referralId": "e-0-5b2d2f56911fc4002cd86b15-50"}, {"reasons": {"count": 0, "items": [{"summary": "This spot is popular", "type": "general", "reasonName": "globalInteractionReason"}]}, "venue": {"id": "4da5dd2fcda1c55f755f88c5", "name": "YOTEL New York", "location": {"address": "570 10th Ave", "crossStreet": "at W 42nd St", "lat": 40.759171152139054, "lng": -73.99526845262133, "labeledLatLngs": [{"label": "display", "lat": 40.759171152139054, "lng": -73.99526845262133}], "distance": 494, "postalCode": "10036", "cc": "US", "city": "New York", "state": "NY", "country": "United States", "formattedAddress": ["570 10th Ave (at W 42nd St)", "New York, NY 10036", "United States"]}, "categories": [{"id": "4bf58dd8d48988d1fa931735", "name": "Hotel", "pluralName": "Hotels", "shortName": "Hotel", "icon": {"prefix": "https://ss3.4sqi.net/img/categories_v2/travel/hotel_", "suffix": ".png"}, "primary": true}], "photos": {"count": 0, "groups": []}}, "referralId": "e-0-4da5dd2fcda1c55f755f88c5-51"}, {"reasons": {"count": 0, "items": [{"summary": "This spot is popular", "type": "general", "reasonName": "globalInteractionReason"}]}, "venue": {"id": "4f47d688e4b0d125f5871461", "name": "Zoob Zib Thai Noodle Bar", "location": {"address": "462 9th Ave", "crossStreet": "at 36th St.", "lat": 40.75452956940237, "lng": -73.99556553080292, "labeledLatLngs": [{"label": "display", "lat": 40.75452956940237, "lng": -73.99556553080292}], "distance": 450, "postalCode": "10018", "cc": "US", "neighborhood": "Hell's Kitchen", "city": "New York", "state": "NY", "country": "United States", "formattedAddress": ["462 9th Ave (at 36th St.)", "New York, NY 10018", "United States"]}, "categories": [{"id": "4bf58dd8d48988d149941735", "name": "Thai Restaurant", "pluralName": "Thai Restaurants", "shortName": "Thai", "icon": {"prefix": "https://ss3.4sqi.net/img/categories_v2/food/thai_", "suffix": ".png"}, "primary": true}], "delivery": {"id": "462722", "url": "https://www.seamless.com/menu/zoob-zib-460-9th-ave-new-york/462722?affiliate=1131&utm_source=foursquare-affiliate-network&utm_medium=affiliate&utm_campaign=1131&utm_content=462722", "provider": {"name": "seamless", "icon": {"prefix": "https://fastly.4sqi.net/img/general/cap/", "sizes": [40, 50], "name": "/delivery_provider_seamless_20180129.png"}}}, "photos": {"count": 0, "groups": []}}, "referralId": "e-0-4f47d688e4b0d125f5871461-52"}, {"reasons": {"count": 0, "items": [{"summary": "This spot is popular", "type": "general", "reasonName": "globalInteractionReason"}]}, "venue": {"id": "4ba518b0f964a520aadc38e3", "name": "Pier 61", "location": {"address": "Hudson River Park", "crossStreet": "at W 24th St", "lat": 40.759418978986595, "lng": -74.00337295179452, "labeledLatLngs": [{"label": "display", "lat": 40.759418978986595, "lng": -74.00337295179452}], "distance": 412, "postalCode": "10009", "cc": "US", "city": "New York", "state": "NY", "country": "United States", "formattedAddress": ["Hudson River Park (at W 24th St)", "New York, NY 10009", "United States"]}, "categories": [{"id": "4bf58dd8d48988d163941735", "name": "Park", "pluralName": "Parks", "shortName": "Park", "icon": {"prefix": "https://ss3.4sqi.net/img/categories_v2/parks_outdoors/park_", "suffix": ".png"}, "primary": true}], "photos": {"count": 0, "groups": []}}, "referralId": "e-0-4ba518b0f964a520aadc38e3-53"}, {"reasons": {"count": 0, "items": [{"summary": "This spot is popular", "type": "general", "reasonName": "globalInteractionReason"}]}, "venue": {"id": "5c683caaf96b2c00397a8609", "name": "Oslo Coffee Roasters", "location": {"address": "620 W 42nd St", "lat": 40.760512, "lng": -73.998985, "labeledLatLngs": [{"label": "display", "lat": 40.760512, "lng": -73.998985}], "distance": 439, "postalCode": "10036", "cc": "US", "city": "New York", "state": "NY", "country": "United States", "formattedAddress": ["620 W 42nd St", "New York, NY 10036", "United States"]}, "categories": [{"id": "4bf58dd8d48988d1e0931735", "name": "Coffee Shop", "pluralName": "Coffee Shops", "shortName": "Coffee Shop", "icon": {"prefix": "https://ss3.4sqi.net/img/categories_v2/food/coffeeshop_", "suffix": ".png"}, "primary": true}], "photos": {"count": 0, "groups": []}}, "referralId": "e-0-5c683caaf96b2c00397a8609-54"}, {"reasons": {"count": 0, "items": [{"summary": "This spot is popular", "type": "general", "reasonName": "globalInteractionReason"}]}, "venue": {"id": "4f6e221de4b0e0075b3fa222", "name": "yotel galley", "location": {"lat": 40.759181749320184, "lng": -73.99551339388837, "labeledLatLngs": [{"label": "display", "lat": 40.759181749320184, "lng": -73.99551339388837}], "distance": 478, "postalCode": "10036", "cc": "US", "city": "New York", "state": "NY", "country": "United States", "formattedAddress": ["New York, NY 10036", "United States"]}, "categories": [{"id": "4bf58dd8d48988d1d5941735", "name": "Hotel Bar", "pluralName": "Hotel Bars", "shortName": "Hotel Bar", "icon": {"prefix": "https://ss3.4sqi.net/img/categories_v2/travel/hotel_bar_", "suffix": ".png"}, "primary": true}], "photos": {"count": 0, "groups": []}}, "referralId": "e-0-4f6e221de4b0e0075b3fa222-55"}, {"reasons": {"count": 0, "items": [{"summary": "This spot is popular", "type": "general", "reasonName": "globalInteractionReason"}]}, "venue": {"id": "4f0f9d85e4b07e9ec8986efa", "name": "Voices of Gotham", "location": {"address": "410 W 40th St", "crossStreet": "at 9th Ave.", "lat": 40.757215262047424, "lng": -73.99438169874057, "labeledLatLngs": [{"label": "display", "lat": 40.757215262047424, "lng": -73.99438169874057}], "distance": 487, "postalCode": "10018", "cc": "US", "city": "New York", "state": "NY", "country": "United States", "formattedAddress": ["410 W 40th St (at 9th Ave.)", "New York, NY 10018", "United States"]}, "categories": [{"id": "5032792091d4c4b30a586d5c", "name": "Concert Hall", "pluralName": "Concert Halls", "shortName": "Concert Hall", "icon": {"prefix": "https://ss3.4sqi.net/img/categories_v2/arts_entertainment/musicvenue_", "suffix": ".png"}, "primary": true}], "photos": {"count": 0, "groups": []}, "venuePage": {"id": "45841846"}}, "referralId": "e-0-4f0f9d85e4b07e9ec8986efa-56"}, {"reasons": {"count": 0, "items": [{"summary": "This spot is popular", "type": "general", "reasonName": "globalInteractionReason"}]}, "venue": {"id": "4cdef5c5f8a4a1430ffddabc", "name": "Silver Towers Dog Run", "location": {"address": "620 W 42nd St", "crossStreet": "11th Avenue", "lat": 40.760853793051126, "lng": -73.99976474248675, "labeledLatLngs": [{"label": "display", "lat": 40.760853793051126, "lng": -73.99976474248675}], "distance": 467, "postalCode": "10036", "cc": "US", "city": "New York", "state": "NY", "country": "United States", "formattedAddress": ["620 W 42nd St (11th Avenue)", "New York, NY 10036", "United States"]}, "categories": [{"id": "4bf58dd8d48988d1e5941735", "name": "Dog Run", "pluralName": "Dog Runs", "shortName": "Dog Run", "icon": {"prefix": "https://ss3.4sqi.net/img/categories_v2/parks_outdoors/dogrun_", "suffix": ".png"}, "primary": true}], "photos": {"count": 0, "groups": []}}, "referralId": "e-0-4cdef5c5f8a4a1430ffddabc-57"}, {"reasons": {"count": 0, "items": [{"summary": "This spot is popular", "type": "general", "reasonName": "globalInteractionReason"}]}, "venue": {"id": "4abad7b8f964a520208320e3", "name": "Il Punto Ristorante", "location": {"address": "507 9th Ave", "crossStreet": "Corner Of 38th", "lat": 40.75607945804827, "lng": -73.9945936203003, "labeledLatLngs": [{"label": "display", "lat": 40.75607945804827, "lng": -73.9945936203003}], "distance": 469, "postalCode": "10018", "cc": "US", "city": "New York", "state": "NY", "country": "United States", "formattedAddress": ["507 9th Ave (Corner Of 38th)", "New York, NY 10018", "United States"]}, "categories": [{"id": "4bf58dd8d48988d110941735", "name": "Italian Restaurant", "pluralName": "Italian Restaurants", "shortName": "Italian", "icon": {"prefix": "https://ss3.4sqi.net/img/categories_v2/food/italian_", "suffix": ".png"}, "primary": true}], "delivery": {"id": "296664", "url": "https://www.seamless.com/menu/il-punto-507-9th-ave-new-york/296664?affiliate=1131&utm_source=foursquare-affiliate-network&utm_medium=affiliate&utm_campaign=1131&utm_content=296664", "provider": {"name": "seamless", "icon": {"prefix": "https://fastly.4sqi.net/img/general/cap/", "sizes": [40, 50], "name": "/delivery_provider_seamless_20180129.png"}}}, "photos": {"count": 0, "groups": []}, "venuePage": {"id": "47039779"}}, "referralId": "e-0-4abad7b8f964a520208320e3-58"}, {"reasons": {"count": 0, "items": [{"summary": "This spot is popular", "type": "general", "reasonName": "globalInteractionReason"}]}, "venue": {"id": "4ffdd1c6e4b07fd0595dbfa5", "name": "The Spa at the OUT NYC", "location": {"address": "510 W 42nd St", "crossStreet": "btwn 10th + 11th Ave.", "lat": 40.759511052405415, "lng": -73.9967572111677, "labeledLatLngs": [{"label": "display", "lat": 40.759511052405415, "lng": -73.9967572111677}], "distance": 425, "postalCode": "10036", "cc": "US", "city": "New York", "state": "NY", "country": "United States", "formattedAddress": ["510 W 42nd St (btwn 10th + 11th Ave.)", "New York, NY 10036", "United States"]}, "categories": [{"id": "4bf58dd8d48988d1ed941735", "name": "Spa", "pluralName": "Spas", "shortName": "Spa", "icon": {"prefix": "https://ss3.4sqi.net/img/categories_v2/shops/spa_", "suffix": ".png"}, "primary": true}], "photos": {"count": 0, "groups": []}, "venuePage": {"id": "41301932"}}, "referralId": "e-0-4ffdd1c6e4b07fd0595dbfa5-59"}, {"reasons": {"count": 0, "items": [{"summary": "This spot is popular", "type": "general", "reasonName": "globalInteractionReason"}]}, "venue": {"id": "59fbb26531ac6c770c9e3367", "name": "Cachet Boutique Hotel", "location": {"address": "510 W 42nd St", "lat": 40.75969040371097, "lng": -73.99652955491099, "labeledLatLngs": [{"label": "display", "lat": 40.75969040371097, "lng": -73.99652955491099}], "distance": 452, "postalCode": "10036", "cc": "US", "city": "New York", "state": "NY", "country": "United States", "formattedAddress": ["510 W 42nd St", "New York, NY 10036", "United States"]}, "categories": [{"id": "4bf58dd8d48988d1fa931735", "name": "Hotel", "pluralName": "Hotels", "shortName": "Hotel", "icon": {"prefix": "https://ss3.4sqi.net/img/categories_v2/travel/hotel_", "suffix": ".png"}, "primary": true}], "photos": {"count": 0, "groups": []}}, "referralId": "e-0-59fbb26531ac6c770c9e3367-60"}, {"reasons": {"count": 0, "items": [{"summary": "This spot is popular", "type": "general", "reasonName": "globalInteractionReason"}]}, "venue": {"id": "5bb17b9531ac6c0039f150cf", "name": "Treadwell", "location": {"address": "510 W 42nd St", "lat": 40.759963612615174, "lng": -73.996284413735, "labeledLatLngs": [{"label": "display", "lat": 40.759963612615174, "lng": -73.996284413735}], "distance": 489, "postalCode": "10036", "cc": "US", "neighborhood": "Hell's Kitchen", "city": "New York", "state": "NY", "country": "United States", "formattedAddress": ["510 W 42nd St", "New York, NY 10036", "United States"]}, "categories": [{"id": "4bf58dd8d48988d1c4941735", "name": "Restaurant", "pluralName": "Restaurants", "shortName": "Restaurant", "icon": {"prefix": "https://ss3.4sqi.net/img/categories_v2/food/default_", "suffix": ".png"}, "primary": true}], "delivery": {"id": "983281", "url": "https://www.seamless.com/menu/treadwell-park-508-w-42nd-st-new-york/983281?affiliate=1131&utm_source=foursquare-affiliate-network&utm_medium=affiliate&utm_campaign=1131&utm_content=983281", "provider": {"name": "seamless", "icon": {"prefix": "https://fastly.4sqi.net/img/general/cap/", "sizes": [40, 50], "name": "/delivery_provider_seamless_20180129.png"}}}, "photos": {"count": 0, "groups": []}}, "referralId": "e-0-5bb17b9531ac6c0039f150cf-61"}, {"reasons": {"count": 0, "items": [{"summary": "This spot is popular", "type": "general", "reasonName": "globalInteractionReason"}]}, "venue": {"id": "4a81c3c9f964a52081f71fe3", "name": "Kashmir 9: Cuisine of Pakistan", "location": {"address": "478 9th Ave", "crossStreet": "at W 37th St", "lat": 40.75513063184388, "lng": -73.99505710460998, "labeledLatLngs": [{"label": "display", "lat": 40.75513063184388, "lng": -73.99505710460998}], "distance": 458, "postalCode": "10018", "cc": "US", "neighborhood": "Hell's Kitchen", "city": "New York", "state": "NY", "country": "United States", "formattedAddress": ["478 9th Ave (at W 37th St)", "New York, NY 10018", "United States"]}, "categories": [{"id": "52e81612bcbc57f1066b79f8", "name": "Pakistani Restaurant", "pluralName": "Pakistani Restaurants", "shortName": "Pakistani", "icon": {"prefix": "https://ss3.4sqi.net/img/categories_v2/food/default_", "suffix": ".png"}, "primary": true}], "delivery": {"id": "289564", "url": "https://www.seamless.com/menu/kashmir-9-478-9th-ave-new-york/289564?affiliate=1131&utm_source=foursquare-affiliate-network&utm_medium=affiliate&utm_campaign=1131&utm_content=289564", "provider": {"name": "seamless", "icon": {"prefix": "https://fastly.4sqi.net/img/general/cap/", "sizes": [40, 50], "name": "/delivery_provider_seamless_20180129.png"}}}, "photos": {"count": 0, "groups": []}}, "referralId": "e-0-4a81c3c9f964a52081f71fe3-62"}, {"reasons": {"count": 0, "items": [{"summary": "This spot is popular", "type": "general", "reasonName": "globalInteractionReason"}]}, "venue": {"id": "43cdefe7f964a520d72d1fe3", "name": "Uncle Jack's Steakhouse", "location": {"address": "440 9th Ave", "crossStreet": "btwn W 34th & W 35th St", "lat": 40.75361919901984, "lng": -73.99601927974142, "labeledLatLngs": [{"label": "display", "lat": 40.75361919901984, "lng": -73.99601927974142}], "distance": 483, "postalCode": "10001", "cc": "US", "city": "New York", "state": "NY", "country": "United States", "formattedAddress": ["440 9th Ave (btwn W 34th & W 35th St)", "New York, NY 10001", "United States"]}, "categories": [{"id": "4bf58dd8d48988d1cc941735", "name": "Steakhouse", "pluralName": "Steakhouses", "shortName": "Steakhouse", "icon": {"prefix": "https://ss3.4sqi.net/img/categories_v2/food/steakhouse_", "suffix": ".png"}, "primary": true}], "delivery": {"id": "271760", "url": "https://www.seamless.com/menu/uncle-jacks-440-9th-ave-new-york/271760?affiliate=1131&utm_source=foursquare-affiliate-network&utm_medium=affiliate&utm_campaign=1131&utm_content=271760", "provider": {"name": "seamless", "icon": {"prefix": "https://fastly.4sqi.net/img/general/cap/", "sizes": [40, 50], "name": "/delivery_provider_seamless_20180129.png"}}}, "photos": {"count": 0, "groups": []}}, "referralId": "e-0-43cdefe7f964a520d72d1fe3-63"}, {"reasons": {"count": 0, "items": [{"summary": "This spot is popular", "type": "general", "reasonName": "globalInteractionReason"}]}, "venue": {"id": "4cb492fd75ebb60caa97e3ad", "name": "NYC Fine Cigars", "location": {"address": "362w 36st", "crossStreet": "Between 9th and 8th ave", "lat": 40.756008384408524, "lng": -73.99431561494401, "labeledLatLngs": [{"label": "display", "lat": 40.756008384408524, "lng": -73.99431561494401}], "distance": 494, "postalCode": "10018", "cc": "US", "city": "New York", "state": "NY", "country": "United States", "formattedAddress": ["362w 36st (Between 9th and 8th ave)", "New York, NY 10018", "United States"]}, "categories": [{"id": "4bf58dd8d48988d123951735", "name": "Smoke Shop", "pluralName": "Smoke Shops", "shortName": "Smoke Shop", "icon": {"prefix": "https://ss3.4sqi.net/img/categories_v2/shops/tobacco_", "suffix": ".png"}, "primary": true}], "photos": {"count": 0, "groups": []}, "venuePage": {"id": "71195429"}}, "referralId": "e-0-4cb492fd75ebb60caa97e3ad-64"}, {"reasons": {"count": 0, "items": [{"summary": "This spot is popular", "type": "general", "reasonName": "globalInteractionReason"}]}, "venue": {"id": "506063f2e4b062a5a1142b19", "name": "The Pearl Theatre Company", "location": {"address": "555 W 42nd St", "crossStreet": "11th Avenue", "lat": 40.76063840184041, "lng": -73.9977413574938, "labeledLatLngs": [{"label": "display", "lat": 40.76063840184041, "lng": -73.9977413574938}], "distance": 486, "postalCode": "10036", "cc": "US", "city": "New York", "state": "NY", "country": "United States", "formattedAddress": ["555 W 42nd St (11th Avenue)", "New York, NY 10036", "United States"]}, "categories": [{"id": "4bf58dd8d48988d137941735", "name": "Theater", "pluralName": "Theaters", "shortName": "Theater", "icon": {"prefix": "https://ss3.4sqi.net/img/categories_v2/arts_entertainment/performingarts_theater_", "suffix": ".png"}, "primary": true}], "photos": {"count": 0, "groups": []}}, "referralId": "e-0-506063f2e4b062a5a1142b19-65"}, {"reasons": {"count": 0, "items": [{"summary": "This spot is popular", "type": "general", "reasonName": "globalInteractionReason"}]}, "venue": {"id": "526d9114498ec8efda93fcce", "name": "Romeo and Juliet Coffee", "location": {"address": "555 W 42nd St", "crossStreet": "11th Avenue", "lat": 40.760726, "lng": -73.997724, "labeledLatLngs": [{"label": "display", "lat": 40.760726, "lng": -73.997724}], "distance": 495, "postalCode": "10036", "cc": "US", "city": "New York", "state": "NY", "country": "United States", "formattedAddress": ["555 W 42nd St (11th Avenue)", "New York, NY 10036", "United States"]}, "categories": [{"id": "4bf58dd8d48988d1e0931735", "name": "Coffee Shop", "pluralName": "Coffee Shops", "shortName": "Coffee Shop", "icon": {"prefix": "https://ss3.4sqi.net/img/categories_v2/food/coffeeshop_", "suffix": ".png"}, "primary": true}], "delivery": {"id": "348807", "url": "https://www.seamless.com/menu/romeo-and-juliet-colombian-coffee-555-w-42-st-new-york/348807?affiliate=1131&utm_source=foursquare-affiliate-network&utm_medium=affiliate&utm_campaign=1131&utm_content=348807", "provider": {"name": "seamless", "icon": {"prefix": "https://fastly.4sqi.net/img/general/cap/", "sizes": [40, 50], "name": "/delivery_provider_seamless_20180129.png"}}}, "photos": {"count": 0, "groups": []}, "venuePage": {"id": "78324036"}}, "referralId": "e-0-526d9114498ec8efda93fcce-66"}, {"reasons": {"count": 0, "items": [{"summary": "This spot is popular", "type": "general", "reasonName": "globalInteractionReason"}]}, "venue": {"id": "5b8d7044a5a315002c2adc8a", "name": "Playboy Club New York", "location": {"address": "512 W 42nd St", "crossStreet": "10th Ave.", "lat": 40.76000023219246, "lng": -73.99636724453029, "labeledLatLngs": [{"label": "display", "lat": 40.76000023219246, "lng": -73.99636724453029}], "distance": 487, "postalCode": "10036", "cc": "US", "city": "New York", "state": "NY", "country": "United States", "formattedAddress": ["512 W 42nd St (10th Ave.)", "New York, NY 10036", "United States"]}, "categories": [{"id": "4bf58dd8d48988d121941735", "name": "Lounge", "pluralName": "Lounges", "shortName": "Lounge", "icon": {"prefix": "https://ss3.4sqi.net/img/categories_v2/nightlife/default_", "suffix": ".png"}, "primary": true}], "photos": {"count": 0, "groups": []}}, "referralId": "e-0-5b8d7044a5a315002c2adc8a-67"}, {"reasons": {"count": 0, "items": [{"summary": "This spot is popular", "type": "general", "reasonName": "globalInteractionReason"}]}, "venue": {"id": "4e8b53ccb63423c021112afb", "name": "Subway", "location": {"address": "555 W 42nd St", "crossStreet": "at 11th Ave.", "lat": 40.7606815525275, "lng": -73.99799083843892, "labeledLatLngs": [{"label": "display", "lat": 40.7606815525275, "lng": -73.99799083843892}], "distance": 482, "postalCode": "10036", "cc": "US", "city": "New York", "state": "NY", "country": "United States", "formattedAddress": ["555 W 42nd St (at 11th Ave.)", "New York, NY 10036", "United States"]}, "categories": [{"id": "4bf58dd8d48988d1c5941735", "name": "Sandwich Place", "pluralName": "Sandwich Places", "shortName": "Sandwiches", "icon": {"prefix": "https://ss3.4sqi.net/img/categories_v2/food/deli_", "suffix": ".png"}, "primary": true}], "delivery": {"id": "433098", "url": "https://www.seamless.com/menu/subway-555-w-42nd-st-ste-14-new-york/433098?affiliate=1131&utm_source=foursquare-affiliate-network&utm_medium=affiliate&utm_campaign=1131&utm_content=433098", "provider": {"name": "seamless", "icon": {"prefix": "https://fastly.4sqi.net/img/general/cap/", "sizes": [40, 50], "name": "/delivery_provider_seamless_20180129.png"}}}, "photos": {"count": 0, "groups": []}, "venuePage": {"id": "144559319"}}, "referralId": "e-0-4e8b53ccb63423c021112afb-68"}, {"reasons": {"count": 0, "items": [{"summary": "This spot is popular", "type": "general", "reasonName": "globalInteractionReason"}]}, "venue": {"id": "4ba65f21f964a5205b4b39e3", "name": "The Castillo Theater", "location": {"address": "543 W 42nd St", "lat": 40.760731, "lng": -73.997614, "labeledLatLngs": [{"label": "display", "lat": 40.760731, "lng": -73.997614}], "distance": 499, "postalCode": "10036", "cc": "US", "city": "New York", "state": "NY", "country": "United States", "formattedAddress": ["543 W 42nd St", "New York, NY 10036", "United States"]}, "categories": [{"id": "4bf58dd8d48988d137941735", "name": "Theater", "pluralName": "Theaters", "shortName": "Theater", "icon": {"prefix": "https://ss3.4sqi.net/img/categories_v2/arts_entertainment/performingarts_theater_", "suffix": ".png"}, "primary": true}], "photos": {"count": 0, "groups": []}}, "referralId": "e-0-4ba65f21f964a5205b4b39e3-69"}, {"reasons": {"count": 0, "items": [{"summary": "This spot is popular", "type": "general", "reasonName": "globalInteractionReason"}]}, "venue": {"id": "5328895b498e4be8392022b3", "name": "East & West", "location": {"address": "570 10th Ave", "crossStreet": "42nd St. & 10th Ave.", "lat": 40.75941317300476, "lng": -73.99543533747469, "labeledLatLngs": [{"label": "display", "lat": 40.75941317300476, "lng": -73.99543533747469}], "distance": 499, "postalCode": "10036", "cc": "US", "city": "New York", "state": "NY", "country": "United States", "formattedAddress": ["570 10th Ave (42nd St. & 10th Ave.)", "New York, NY 10036", "United States"]}, "categories": [{"id": "4bf58dd8d48988d1c4941735", "name": "Restaurant", "pluralName": "Restaurants", "shortName": "Restaurant", "icon": {"prefix": "https://ss3.4sqi.net/img/categories_v2/food/default_", "suffix": ".png"}, "primary": true}], "photos": {"count": 0, "groups": []}, "venuePage": {"id": "81761921"}}, "referralId": "e-0-5328895b498e4be8392022b3-70"}, {"reasons": {"count": 0, "items": [{"summary": "This spot is popular", "type": "general", "reasonName": "globalInteractionReason"}]}, "venue": {"id": "4e8c68dfb803540e785aa5f2", "name": "George's", "location": {"address": "Jacob Javits Center", "crossStreet": "34th St. & 11th Ave.", "lat": 40.75776002491325, "lng": -74.0009627513546, "labeledLatLngs": [{"label": "display", "lat": 40.75776002491325, "lng": -74.0009627513546}], "distance": 142, "cc": "US", "city": "New York", "state": "NY", "country": "United States", "formattedAddress": ["Jacob Javits Center (34th St. & 11th Ave.)", "New York, NY", "United States"]}, "categories": [{"id": "4bf58dd8d48988d16c941735", "name": "Burger Joint", "pluralName": "Burger Joints", "shortName": "Burgers", "icon": {"prefix": "https://ss3.4sqi.net/img/categories_v2/food/burger_", "suffix": ".png"}, "primary": true}], "photos": {"count": 0, "groups": []}}, "referralId": "e-0-4e8c68dfb803540e785aa5f2-71"}, {"reasons": {"count": 0, "items": [{"summary": "This spot is popular", "type": "general", "reasonName": "globalInteractionReason"}]}, "venue": {"id": "5765542f498e44b468d7f6a8", "name": "Concourse Cafe", "location": {"address": "655 W 34th St", "lat": 40.758373, "lng": -74.002115, "labeledLatLngs": [{"label": "display", "lat": 40.758373, "lng": -74.002115}], "distance": 254, "postalCode": "10014", "cc": "US", "city": "New York", "state": "NY", "country": "United States", "formattedAddress": ["655 W 34th St", "New York, NY 10014", "United States"]}, "categories": [{"id": "4bf58dd8d48988d16d941735", "name": "Caf\u00e9", "pluralName": "Caf\u00e9s", "shortName": "Caf\u00e9", "icon": {"prefix": "https://ss3.4sqi.net/img/categories_v2/food/cafe_", "suffix": ".png"}, "primary": true}], "photos": {"count": 0, "groups": []}}, "referralId": "e-0-5765542f498e44b468d7f6a8-72"}, {"reasons": {"count": 0, "items": [{"summary": "This spot is popular", "type": "general", "reasonName": "globalInteractionReason"}]}, "venue": {"id": "4beede46e8c3c92803479992", "name": "NYPD Mounted Unit", "location": {"address": "Pier 76", "crossStreet": "12th Ave. at 36th Street", "lat": 40.759155474313346, "lng": -74.00412082672119, "labeledLatLngs": [{"label": "display", "lat": 40.759155474313346, "lng": -74.00412082672119}], "distance": 437, "cc": "US", "city": "New York", "state": "NY", "country": "United States", "formattedAddress": ["Pier 76 (12th Ave. at 36th Street)", "New York, NY", "United States"]}, "categories": [{"id": "4eb1baf03b7b2c5b1d4306ca", "name": "Stables", "pluralName": "Stables", "shortName": "Stables", "icon": {"prefix": "https://ss3.4sqi.net/img/categories_v2/parks_outdoors/stable_", "suffix": ".png"}, "primary": true}], "photos": {"count": 0, "groups": []}}, "referralId": "e-0-4beede46e8c3c92803479992-73"}, {"reasons": {"count": 0, "items": [{"summary": "This spot is popular", "type": "general", "reasonName": "globalInteractionReason"}]}, "venue": {"id": "4d8bee412505a35df076a352", "name": "NY Waterway 42nd St Bus", "location": {"address": "42nd St", "lat": 40.76005034180474, "lng": -74.00337869033076, "labeledLatLngs": [{"label": "display", "lat": 40.76005034180474, "lng": -74.00337869033076}], "distance": 467, "postalCode": "10036", "cc": "US", "city": "New York", "state": "NY", "country": "United States", "formattedAddress": ["42nd St", "New York, NY 10036", "United States"]}, "categories": [{"id": "4bf58dd8d48988d1fe931735", "name": "Bus Station", "pluralName": "Bus Stations", "shortName": "Bus Station", "icon": {"prefix": "https://ss3.4sqi.net/img/categories_v2/travel/busstation_", "suffix": ".png"}, "primary": true}], "photos": {"count": 0, "groups": []}}, "referralId": "e-0-4d8bee412505a35df076a352-74"}, {"reasons": {"count": 0, "items": [{"summary": "This spot is popular", "type": "general", "reasonName": "globalInteractionReason"}]}, "venue": {"id": "4e63fcfe8877954de8de286a", "name": "City Lights Cruises", "location": {"address": "Pier 78 - West Side Highway", "crossStreet": "W 38th St", "lat": 40.75980394400013, "lng": -74.00402523868372, "labeledLatLngs": [{"label": "display", "lat": 40.75980394400013, "lng": -74.00402523868372}], "distance": 481, "postalCode": "10011", "cc": "US", "city": "New York", "state": "NY", "country": "United States", "formattedAddress": ["Pier 78 - West Side Highway (W 38th St)", "New York, NY 10011", "United States"]}, "categories": [{"id": "4bf58dd8d48988d12d951735", "name": "Boat or Ferry", "pluralName": "Boats or Ferries", "shortName": "Boat / Ferry", "icon": {"prefix": "https://ss3.4sqi.net/img/categories_v2/travel/boat_", "suffix": ".png"}, "primary": true}], "photos": {"count": 0, "groups": []}}, "referralId": "e-0-4e63fcfe8877954de8de286a-75"}]}]}}